{"schema":"sim-blackbox.v1","seq":1,"timeMs":0,"dt":0.04,"receivedAt":"2026-06-01T08:06:30.585Z","source":"simulator-live","initialConfig":{"altitudeFt":10000,"casKt":250,"throttle":0.6,"pitchDeg":3},"pilot":{"source":"keyboard","keys":["alt"],"rollCmdRaw":0,"pitchCmdRaw":0,"rudderCmdRaw":0,"throttleCmdRaw":0.6},"controls":{"roll":0,"pitch":0,"rudder":0,"throttle":0.6},"state":{"pitchDeg":3,"rollDeg":0,"headingDeg":0,"altitudeM":3048,"altitudeFt":10000.00032,"vyMs":0,"casKt":249.99997175115658,"n1Pct":68,"throttle":0.6,"normalG":1,"aoaDeg":3},"physics":{"rho":0.9046355374084931,"tasMs":149.66005872279516,"qS":1235991.2611725002,"gammaDeg":0,"alphaDeg":3,"cl":0.47621695920538754,"cd":0.03220521665056716,"liftN":588600,"dragN":39805.366344268106,"thrustN":39780,"axMs2":-0.00042277240446843885,"verticalAccelMs2":0,"nz":1,"cmdPitchRateDegS":0,"pitchRateDegS":0,"cmdRollRateDegS":0,"rollDampingDegS":0,"coordTurnRateDegS":0,"yawRateDegS":0},"telemetry":{"PitchAngle":3,"RollAngle":0,"MagneticHeading":0,"BaroAltitude":10000.00032,"RadioAltitude":10000.00032,"CAS":249.99997175115658,"Vy":0,"NormalG":1,"AoA":3,"Engine_N1_Left":68,"Engine_N1_Target_Left":60,"FCU_Roll_Left":0,"FCU_Pitch_Left":0}}
{"schema":"sim-blackbox.v1","seq":2,"timeMs":40,"dt":0.04,"receivedAt":"2026-06-01T08:06:30.625Z","source":"simulator-live","initialConfig":{"altitudeFt":10000,"casKt":250,"throttle":0.6,"pitchDeg":3},"pilot":{"source":"keyboard","keys":["alt"],"rollCmdRaw":0,"pitchCmdRaw":0,"rudderCmdRaw":0,"throttleCmdRaw":0.6},"controls":{"roll":0,"pitch":0,"rudder":0,"throttle":0.6},"state":{"pitchDeg":3,"rollDeg":0,"headingDeg":0,"altitudeM":3047.999999996453,"altitudeFt":10000.000319988363,"vyMs":-8.86787642453868e-8,"casKt":249.99994351233101,"n1Pct":68,"throttle":0.6,"normalG":0.9999997740092654,"aoaDeg":3},"physics":{"rho":0.9046355374084931,"tasMs":149.6600418178961,"qS":1235990.981849927,"gammaDeg":0,"alphaDeg":3,"cl":0.47621695920538754,"cd":0.03220521665056716,"liftN":588599.8669818536,"dragN":39805.357348624115,"thrustN":39780,"axMs2":-0.0004226224770685803,"verticalAccelMs2":-0.00000221696910613467,"nz":0.9999997740092654,"cmdPitchRateDegS":0,"pitchRateDegS":0,"cmdRollRateDegS":0,"rollDampingDegS":0,"coordTurnRateDegS":0,"yawRateDegS":0},"telemetry":{"PitchAngle":3,"RollAngle":0,"MagneticHeading":0,"BaroAltitude":10000.000319988363,"RadioAltitude":10000.000319988363,"CAS":249.99994351233101,"Vy":-0.00008867876424538679,"NormalG":0.9999997740092654,"AoA":3,"Engine_N1_Left":68,"Engine_N1_Target_Left":60,"FCU_Roll_Left":0,"FCU_Pitch_Left":0}}
{"schema":"sim-blackbox.v1","seq":3,"timeMs":81,"dt":0.04,"receivedAt":"2026-06-01T08:06:30.666Z","source":"simulator-live","initialConfig":{"altitudeFt":10000,"casKt":250,"throttle":0.6,"pitchDeg":3},"pilot":{"source":"keyboard","keys":["alt"],"rollCmdRaw":0,"pitchCmdRaw":0,"rudderCmdRaw":0,"throttleCmdRaw":0.6},"controls":{"roll":0,"pitch":0,"rudder":0,"throttle":0.6},"state":{"pitchDeg":3,"rollDeg":0,"headingDeg":0,"altitudeM":3047.9999999859315,"altitudeFt":10000.000319953844,"vyMs":-2.630355721328402e-7,"casKt":249.99991528376162,"n1Pct":68,"throttle":0.6,"normalG":0.9999995549424568,"aoaDeg":3.000000033949736},"physics":{"rho":0.904635537408824,"tasMs":149.6600249191094,"qS":1235990.7026268935,"gammaDeg":-3.3949736095080545e-8,"alphaDeg":3.000000033949736,"cl":0.47621696246432826,"cd":0.03220521679024381,"liftN":588599.7380391301,"dragN":39805.34852882488,"thrustN":39780,"axMs2":-0.0004224696676494641,"verticalAccelMs2":-0.000004358920197186335,"nz":0.9999995549424568,"cmdPitchRateDegS":0,"pitchRateDegS":0,"cmdRollRateDegS":0,"rollDampingDegS":0,"coordTurnRateDegS":0,"yawRateDegS":0},"telemetry":{"PitchAngle":3,"RollAngle":0,"MagneticHeading":0,"BaroAltitude":10000.000319953844,"RadioAltitude":10000.000319953844,"CAS":249.99991528376162,"Vy":-0.0002630355721328402,"NormalG":0.9999995549424568,"AoA":3.000000033949736,"Engine_N1_Left":68,"Engine_N1_Target_Left":60,"FCU_Roll_Left":0,"FCU_Pitch_Left":0}}
{"schema":"sim-blackbox.v1","seq":4,"timeMs":122,"dt":0.04,"receivedAt":"2026-06-01T08:06:30.707Z","source":"simulator-live","initialConfig":{"altitudeFt":10000,"casKt":250,"throttle":0.6,"pitchDeg":3},"pilot":{"source":"keyboard","keys":["alt"],"rollCmdRaw":0,"pitchCmdRaw":0,"rudderCmdRaw":0,"throttleCmdRaw":0.6},"controls":{"roll":0,"pitch":0,"rudder":0,"throttle":0.6},"state":{"pitchDeg":3,"rollDeg":0,"headingDeg":0,"altitudeM":3047.9999999651245,"altitudeFt":10000.00031988558,"vyMs":-5.201694301621958e-7,"casKt":249.99988706567834,"n1Pct":68,"throttle":0.6,"normalG":0.9999993425698984,"aoaDeg":3.000000100700425},"physics":{"rho":0.9046355374098054,"tasMs":149.6600080265463,"qS":1235990.4235057402,"gammaDeg":-1.0070042520149514e-7,"alphaDeg":3.000000100700425,"cl":0.47621696887193443,"cd":0.032205217064870784,"liftN":588599.6130366422,"dragN":39805.33987910393,"thrustN":39780,"axMs2":-0.0004223140767942929,"verticalAccelMs2":-0.0000064283464507338885,"nz":0.9999993425698984,"cmdPitchRateDegS":0,"pitchRateDegS":0,"cmdRollRateDegS":0,"rollDampingDegS":0,"coordTurnRateDegS":0,"yawRateDegS":0},"telemetry":{"PitchAngle":3,"RollAngle":0,"MagneticHeading":0,"BaroAltitude":10000.00031988558,"RadioAltitude":10000.00031988558,"CAS":249.99988706567834,"Vy":-0.0005201694301621958,"NormalG":0.9999993425698984,"AoA":3.000000100700425,"Engine_N1_Left":68,"Engine_N1_Target_Left":60,"FCU_Roll_Left":0,"FCU_Pitch_Left":0}}
{"schema":"sim-blackbox.v1","seq":5,"timeMs":162,"dt":0.04,"receivedAt":"2026-06-01T08:06:30.747Z","source":"simulator-live","initialConfig":{"altitudeFt":10000,"casKt":250,"throttle":0.6,"pitchDeg":3},"pilot":{"source":"keyboard","keys":["alt"],"rollCmdRaw":0,"pitchCmdRaw":0,"rudderCmdRaw":0,"throttleCmdRaw":0.6},"controls":{"roll":0,"pitch":0,"rudder":0,"throttle":0.6},"state":{"pitchDeg":3,"rollDeg":0,"headingDeg":0,"altitudeM":3047.9999999308334,"altitudeFt":10000.000319773075,"vyMs":-8.572757590560696e-7,"casKt":249.99985885830324,"n1Pct":68,"throttle":0.6,"normalG":0.9999991366695437,"aoaDeg":3.000000199141463},"physics":{"rho":0.9046355374117456,"tasMs":149.65999114031425,"qS":1235990.1444887258,"gammaDeg":-1.9914146319391063e-7,"alphaDeg":3.000000199141463,"cl":0.47621697832159565,"cd":0.0322052174698788,"liftN":588599.4918436934,"dragN":39805.33139388633,"thrustN":39780,"axMs2":-0.0004221558017414742,"verticalAccelMs2":-0.000008427658222346847,"nz":0.9999991366695437,"cmdPitchRateDegS":0,"pitchRateDegS":0,"cmdRollRateDegS":0,"rollDampingDegS":0,"coordTurnRateDegS":0,"yawRateDegS":0},"telemetry":{"PitchAngle":3,"RollAngle":0,"MagneticHeading":0,"BaroAltitude":10000.000319773075,"RadioAltitude":10000.000319773075,"CAS":249.99985885830324,"Vy":-0.0008572757590560696,"NormalG":0.9999991366695437,"AoA":3.000000199141463,"Engine_N1_Left":68,"Engine_N1_Target_Left":60,"FCU_Roll_Left":0,"FCU_Pitch_Left":0}}
{"schema":"sim-blackbox.v1","seq":6,"timeMs":203,"dt":0.04,"receivedAt":"2026-06-01T08:06:30.788Z","source":"simulator-live","initialConfig":{"altitudeFt":10000,"casKt":250,"throttle":0.6,"pitchDeg":3},"pilot":{"source":"keyboard","keys":["alt"],"rollCmdRaw":0,"pitchCmdRaw":0,"rudderCmdRaw":0,"throttleCmdRaw":0.6},"controls":{"roll":0,"pitch":0,"rudder":0,"throttle":0.6},"state":{"pitchDeg":3,"rollDeg":0,"headingDeg":0,"altitudeM":3047.9999998799676,"altitudeFt":10000.000319606193,"vyMs":-0.0000012716431891102054,"casKt":249.9998306618506,"n1Pct":68,"throttle":0.6,"normalG":0.9999989370267266,"aoaDeg":3.0000003281991567},"physics":{"rho":0.9046355374149438,"tasMs":149.65997426051678,"qS":1235989.8655780335,"gammaDeg":-3.2819915662520544e-7,"alphaDeg":3.0000003281991567,"cl":0.4762169907102449,"cd":0.032205218000850466,"liftN":588599.3743339312,"dragN":39805.32306778243,"thrustN":39780,"axMs2":-0.0004219949364979676,"verticalAccelMs2":-0.000010359185751353396,"nz":0.9999989370267266,"cmdPitchRateDegS":0,"pitchRateDegS":0,"cmdRollRateDegS":0,"rollDampingDegS":0,"coordTurnRateDegS":0,"yawRateDegS":0},"telemetry":{"PitchAngle":3,"RollAngle":0,"MagneticHeading":0,"BaroAltitude":10000.000319606193,"RadioAltitude":10000.000319606193,"CAS":249.9998306618506,"Vy":-0.0012716431891102054,"NormalG":0.9999989370267266,"AoA":3.0000003281991567,"Engine_N1_Left":68,"Engine_N1_Target_Left":60,"FCU_Roll_Left":0,"FCU_Pitch_Left":0}}
{"schema":"sim-blackbox.v1","seq":7,"timeMs":243,"dt":0.04,"receivedAt":"2026-06-01T08:06:30.828Z","source":"simulator-live","initialConfig":{"altitudeFt":10000,"casKt":250,"throttle":0.6,"pitchDeg":3},"pilot":{"source":"keyboard","keys":[],"rollCmdRaw":0,"pitchCmdRaw":0,"rudderCmdRaw":0,"throttleCmdRaw":0.6},"controls":{"roll":0,"pitch":0,"rudder":0,"throttle":0.6},"state":{"pitchDeg":3,"rollDeg":0,"headingDeg":0,"altitudeM":3047.999999809542,"altitudeFt":10000.000319375136,"vyMs":-0.0000017606504654757663,"casKt":249.9998024765273,"n1Pct":68,"throttle":0.6,"normalG":0.9999987434339078,"aoaDeg":3.0000004868354955},"physics":{"rho":0.9046355374196876,"tasMs":149.6599573872539,"qS":1235989.5867757662,"gammaDeg":-4.868354958804307e-7,"alphaDeg":3.0000004868354955,"cl":0.4762170059382403,"cd":0.03220521865351519,"liftN":588599.2603851982,"dragN":39805.31489558143,"thrustN":39780,"axMs2":-0.00042183157194165713,"verticalAccelMs2":-0.000012225181909139017,"nz":0.9999987434339078,"cmdPitchRateDegS":0,"pitchRateDegS":0,"cmdRollRateDegS":0,"rollDampingDegS":0,"coordTurnRateDegS":0,"yawRateDegS":0},"telemetry":{"PitchAngle":3,"RollAngle":0,"MagneticHeading":0,"BaroAltitude":10000.000319375136,"RadioAltitude":10000.000319375136,"CAS":249.9998024765273,"Vy":-0.0017606504654757663,"NormalG":0.9999987434339078,"AoA":3.0000004868354955,"Engine_N1_Left":68,"Engine_N1_Target_Left":60,"FCU_Roll_Left":0,"FCU_Pitch_Left":0}}
{"schema":"sim-blackbox.v1","seq":8,"timeMs":284,"dt":0.04,"receivedAt":"2026-06-01T08:06:30.869Z","source":"simulator-live","initialConfig":{"altitudeFt":10000,"casKt":250,"throttle":0.6,"pitchDeg":3},"pilot":{"source":"keyboard","keys":[],"rollCmdRaw":0,"pitchCmdRaw":0,"rudderCmdRaw":0,"throttleCmdRaw":0.6},"controls":{"roll":0,"pitch":0,"rudder":0,"throttle":0.6},"state":{"pitchDeg":3,"rollDeg":0,"headingDeg":0,"altitudeM":3047.9999997166715,"altitudeFt":10000.000319070445,"vyMs":-0.0000023217634526532834,"casKt":249.99977430253287,"n1Pct":68,"throttle":0.6,"normalG":0.9999985556904468,"aoaDeg":3.0000006740469702},"physics":{"rho":0.9046355374262555,"tasMs":149.6599405206221,"qS":1235989.3080839564,"gammaDeg":-6.740469704162613e-7,"alphaDeg":3.0000006740469702,"cl":0.47621702390925175,"cd":0.03220521942374432,"liftN":588599.149879397,"dragN":39805.30687224573,"thrustN":39780,"axMs2":-0.0004216657959304636,"verticalAccelMs2":-0.000014027824679437926,"nz":0.9999985556904468,"cmdPitchRateDegS":0,"pitchRateDegS":0,"cmdRollRateDegS":0,"rollDampingDegS":0,"coordTurnRateDegS":0,"yawRateDegS":0},"telemetry":{"PitchAngle":3,"RollAngle":0,"MagneticHeading":0,"BaroAltitude":10000.000319070445,"RadioAltitude":10000.000319070445,"CAS":249.99977430253287,"Vy":-0.0023217634526532835,"NormalG":0.9999985556904468,"AoA":3.0000006740469702,"Engine_N1_Left":68,"Engine_N1_Target_Left":60,"FCU_Roll_Left":0,"FCU_Pitch_Left":0}}
{"schema":"sim-blackbox.v1","seq":9,"timeMs":325,"dt":0.04,"receivedAt":"2026-06-01T08:06:30.910Z","source":"simulator-live","initialConfig":{"altitudeFt":10000,"casKt":250,"throttle":0.6,"pitchDeg":3},"pilot":{"source":"keyboard","keys":[],"rollCmdRaw":0,"pitchCmdRaw":0,"rudderCmdRaw":0,"throttleCmdRaw":0.6},"controls":{"roll":0,"pitch":0,"rudder":0,"throttle":0.6},"state":{"pitchDeg":3,"rollDeg":0,"headingDeg":0,"altitudeM":3047.9999995985704,"altitudeFt":10000.000318682974,"vyMs":-0.000002952532240886782,"casKt":249.99974614005998,"n1Pct":68,"throttle":0.6,"normalG":0.9999983736023668,"aoaDeg":3.000000888863422},"physics":{"rho":0.9046355374349163,"tasMs":149.65992366071436,"qS":1235989.0295045648,"gammaDeg":-8.888634219818165e-7,"alphaDeg":3.000000888863422,"cl":0.47621704453015073,"cd":0.03220522030754642,"liftN":588599.0427023531,"dragN":39805.298992905,"thrustN":39780,"axMs2":-0.0004214976933996184,"verticalAccelMs2":-0.000015769219705837458,"nz":0.9999983736023668,"cmdPitchRateDegS":0,"pitchRateDegS":0,"cmdRollRateDegS":0,"rollDampingDegS":0,"coordTurnRateDegS":0,"yawRateDegS":0},"telemetry":{"PitchAngle":3,"RollAngle":0,"MagneticHeading":0,"BaroAltitude":10000.000318682974,"RadioAltitude":10000.000318682974,"CAS":249.99974614005998,"Vy":-0.0029525322408867818,"NormalG":0.9999983736023668,"AoA":3.000000888863422,"Engine_N1_Left":68,"Engine_N1_Target_Left":60,"FCU_Roll_Left":0,"FCU_Pitch_Left":0}}
{"schema":"sim-blackbox.v1","seq":10,"timeMs":365,"dt":0.04,"receivedAt":"2026-06-01T08:06:30.950Z","source":"simulator-live","initialConfig":{"altitudeFt":10000,"casKt":250,"throttle":0.6,"pitchDeg":3},"pilot":{"source":"keyboard","keys":[],"rollCmdRaw":0,"pitchCmdRaw":0,"rudderCmdRaw":0,"throttleCmdRaw":0.6},"controls":{"roll":0,"pitch":0,"rudder":0,"throttle":0.6},"state":{"pitchDeg":3,"rollDeg":0,"headingDeg":0,"altitudeM":3047.999999452547,"altitudeFt":10000.000318203894,"vyMs":-0.000003650588347379401,"casKt":249.99971798929448,"n1Pct":68,"throttle":0.6,"normalG":0.9999981969821364,"aoaDeg":3.0000011303469365},"physics":{"rho":0.9046355374459305,"tasMs":149.6599068076205,"qS":1235988.7510394834,"gammaDeg":-0.0000011303469368501509,"alphaDeg":3.0000011303469365,"cl":0.4762170677109041,"cd":0.03220522130106273,"liftN":588598.9387436855,"dragN":39805.291252850686,"thrustN":39780,"axMs2":-0.00042132734645977573,"verticalAccelMs2":-0.00001745140266231547,"nz":0.9999981969821364,"cmdPitchRateDegS":0,"pitchRateDegS":0,"cmdRollRateDegS":0,"rollDampingDegS":0,"coordTurnRateDegS":0,"yawRateDegS":0},"telemetry":{"PitchAngle":3,"RollAngle":0,"MagneticHeading":0,"BaroAltitude":10000.000318203894,"RadioAltitude":10000.000318203894,"CAS":249.99971798929448,"Vy":-0.003650588347379401,"NormalG":0.9999981969821364,"AoA":3.0000011303469365,"Engine_N1_Left":68,"Engine_N1_Target_Left":60,"FCU_Roll_Left":0,"FCU_Pitch_Left":0}}
{"schema":"sim-blackbox.v1","seq":11,"timeMs":406,"dt":0.04,"receivedAt":"2026-06-01T08:06:30.991Z","source":"simulator-live","initialConfig":{"altitudeFt":10000,"casKt":250,"throttle":0.6,"pitchDeg":3},"pilot":{"source":"keyboard","keys":[],"rollCmdRaw":0,"pitchCmdRaw":0,"rudderCmdRaw":0,"throttleCmdRaw":0.6},"controls":{"roll":0,"pitch":0,"rudder":0,"throttle":0.6},"state":{"pitchDeg":3,"rollDeg":0,"headingDeg":0,"altitudeM":3047.9999992760013,"altitudeFt":10000.000317624676,"vyMs":-0.00000441364201133004,"casKt":249.9996898504157,"n1Pct":68,"throttle":0.6,"normalG":0.999998025648454,"aoaDeg":3.000001397590774},"physics":{"rho":0.9046355374595489,"tasMs":149.65988996142713,"qS":1235988.4726905385,"gammaDeg":-0.0000013975907743504446,"alphaDeg":3.000001397590774,"cl":0.4762170933644709,"cd":0.03220522240056273,"liftN":588598.83789668,"dragN":39805.28364753065,"thrustN":39780,"axMs2":-0.00042115483449121476,"verticalAccelMs2":-0.000019076341598765972,"nz":0.999998025648454,"cmdPitchRateDegS":0,"pitchRateDegS":0,"cmdRollRateDegS":0,"rollDampingDegS":0,"coordTurnRateDegS":0,"yawRateDegS":0},"telemetry":{"PitchAngle":3,"RollAngle":0,"MagneticHeading":0,"BaroAltitude":10000.000317624676,"RadioAltitude":10000.000317624676,"CAS":249.9996898504157,"Vy":-0.00441364201133004,"NormalG":0.999998025648454,"AoA":3.000001397590774,"Engine_N1_Left":68,"Engine_N1_Target_Left":60,"FCU_Roll_Left":0,"FCU_Pitch_Left":0}}
{"schema":"sim-blackbox.v1","seq":12,"timeMs":446,"dt":0.04,"receivedAt":"2026-06-01T08:06:31.031Z","source":"simulator-live","initialConfig":{"altitudeFt":10000,"casKt":250,"throttle":0.6,"pitchDeg":3},"pilot":{"source":"keyboard","keys":[],"rollCmdRaw":0,"pitchCmdRaw":0,"rudderCmdRaw":0,"throttleCmdRaw":0.6},"controls":{"roll":0,"pitch":0,"rudder":0,"throttle":0.6},"state":{"pitchDeg":3,"rollDeg":0,"headingDeg":0,"altitudeM":3047.9999990664223,"altitudeFt":10000.000316937081,"vyMs":-0.000005239479578787765,"casKt":249.9996617235967,"n1Pct":68,"throttle":0.6,"normalG":0.99999785942604,"aoaDeg":3.000001689718331},"physics":{"rho":0.9046355374760132,"tasMs":149.65987312221776,"qS":1235988.1944594905,"gammaDeg":-0.0000016897183313178993,"alphaDeg":3.000001689718331,"cl":0.47621712140670325,"cd":0.0322052236024399,"liftN":588598.7400581671,"dragN":39805.27617254386,"thrustN":39780,"axMs2":-0.0004209802342327401,"verticalAccelMs2":-0.000020645939186443124,"nz":0.99999785942604,"cmdPitchRateDegS":0,"pitchRateDegS":0,"cmdRollRateDegS":0,"rollDampingDegS":0,"coordTurnRateDegS":0,"yawRateDegS":0},"telemetry":{"PitchAngle":3,"RollAngle":0,"MagneticHeading":0,"BaroAltitude":10000.000316937081,"RadioAltitude":10000.000316937081,"CAS":249.9996617235967,"Vy":-0.005239479578787765,"NormalG":0.99999785942604,"AoA":3.000001689718331,"Engine_N1_Left":68,"Engine_N1_Target_Left":60,"FCU_Roll_Left":0,"FCU_Pitch_Left":0}}
{"schema":"sim-blackbox.v1","seq":13,"timeMs":487,"dt":0.04,"receivedAt":"2026-06-01T08:06:31.072Z","source":"simulator-live","initialConfig":{"altitudeFt":10000,"casKt":250,"throttle":0.6,"pitchDeg":3},"pilot":{"source":"keyboard","keys":[],"rollCmdRaw":0,"pitchCmdRaw":0,"rudderCmdRaw":0,"throttleCmdRaw":0.6},"controls":{"roll":0,"pitch":0,"rudder":0,"throttle":0.6},"state":{"pitchDeg":3,"rollDeg":0,"headingDeg":0,"altitudeM":3047.999998821384,"altitudeFt":10000.00031613315,"vyMs":-0.000006125960973072129,"casKt":249.99963360900438,"n1Pct":68,"throttle":0.6,"normalG":0.999997698145441,"aoaDeg":3.0000020058821404},"physics":{"rho":0.9046355374955588,"tasMs":149.65985629007295,"qS":1235987.916348041,"gammaDeg":-0.0000020058821409287625,"alphaDeg":3.0000020058821404,"cl":0.47621715175625023,"cd":0.0322052249032076,"liftN":588598.6451284066,"dragN":39805.2688236356,"thrustN":39780,"axMs2":-0.0004208036198726985,"verticalAccelMs2":-0.0000221620348571091,"nz":0.999997698145441,"cmdPitchRateDegS":0,"pitchRateDegS":0,"cmdRollRateDegS":0,"rollDampingDegS":0,"coordTurnRateDegS":0,"yawRateDegS":0},"telemetry":{"PitchAngle":3,"RollAngle":0,"MagneticHeading":0,"BaroAltitude":10000.00031613315,"RadioAltitude":10000.00031613315,"CAS":249.99963360900438,"Vy":-0.0061259609730721296,"NormalG":0.999997698145441,"AoA":3.0000020058821404,"Engine_N1_Left":68,"Engine_N1_Target_Left":60,"FCU_Roll_Left":0,"FCU_Pitch_Left":0}}
{"schema":"sim-blackbox.v1","seq":14,"timeMs":526,"dt":0.04,"receivedAt":"2026-06-01T08:06:31.111Z","source":"simulator-live","initialConfig":{"altitudeFt":10000,"casKt":250,"throttle":0.6,"pitchDeg":3},"pilot":{"source":"keyboard","keys":[],"rollCmdRaw":0,"pitchCmdRaw":0,"rudderCmdRaw":0,"throttleCmdRaw":0.6},"controls":{"roll":0,"pitch":0,"rudder":0,"throttle":0.6},"state":{"pitchDeg":3,"rollDeg":0,"headingDeg":0,"altitudeM":3047.9999985385434,"altitudeFt":10000.000315205194,"vyMs":-0.000007071017251661854,"casKt":249.99960550679987,"n1Pct":68,"throttle":0.6,"normalG":0.9999975416428295,"aoaDeg":3.000002345262904},"physics":{"rho":0.904635537518411,"tasMs":149.65983946507043,"qS":1235987.6383578277,"gammaDeg":-0.0000023452629042927214,"alphaDeg":3.000002345262904,"cl":0.4762171843344648,"cd":0.03220522629949505,"liftN":588598.5530109694,"dragN":39805.26159669229,"thrustN":39780,"axMs2":-0.00042062506312941564,"verticalAccelMs2":-0.00002362640696474314,"nz":0.9999975416428295,"cmdPitchRateDegS":0,"pitchRateDegS":0,"cmdRollRateDegS":0,"rollDampingDegS":0,"coordTurnRateDegS":0,"yawRateDegS":0},"telemetry":{"PitchAngle":3,"RollAngle":0,"MagneticHeading":0,"BaroAltitude":10000.000315205194,"RadioAltitude":10000.000315205194,"CAS":249.99960550679987,"Vy":-0.007071017251661854,"NormalG":0.9999975416428295,"AoA":3.000002345262904,"Engine_N1_Left":68,"Engine_N1_Target_Left":60,"FCU_Roll_Left":0,"FCU_Pitch_Left":0}}
{"schema":"sim-blackbox.v1","seq":15,"timeMs":566,"dt":0.04,"receivedAt":"2026-06-01T08:06:31.151Z","source":"simulator-live","initialConfig":{"altitudeFt":10000,"casKt":250,"throttle":0.6,"pitchDeg":3},"pilot":{"source":"keyboard","keys":[],"rollCmdRaw":0,"pitchCmdRaw":0,"rudderCmdRaw":0,"throttleCmdRaw":0.6},"controls":{"roll":0,"pitch":0,"rudder":0,"throttle":0.6},"state":{"pitchDeg":3,"rollDeg":0,"headingDeg":0,"altitudeM":3047.9999982156373,"altitudeFt":10000.000314145791,"vyMs":-0.000008072648241781974,"casKt":249.9995774171384,"n1Pct":68,"throttle":0.6,"normalG":0.9999973897598233,"aoaDeg":3.0000027070685547},"physics":{"rho":0.9046355375447888,"tasMs":149.6598226472851,"qS":1235987.3604904334,"gammaDeg":-0.000002707068555148193,"alphaDeg":3.0000027070685547,"cl":0.476217219065314,"cd":0.03220522778804356,"liftN":588598.463612632,"dragN":39805.25448773712,"thrustN":39780,"axMs2":-0.00042044463333760595,"verticalAccelMs2":-0.000025040774753002998,"nz":0.9999973897598233,"cmdPitchRateDegS":0,"pitchRateDegS":0,"cmdRollRateDegS":0,"rollDampingDegS":0,"coordTurnRateDegS":0,"yawRateDegS":0},"telemetry":{"PitchAngle":3,"RollAngle":0,"MagneticHeading":0,"BaroAltitude":10000.000314145791,"RadioAltitude":10000.000314145791,"CAS":249.9995774171384,"Vy":-0.008072648241781975,"NormalG":0.9999973897598233,"AoA":3.0000027070685547,"Engine_N1_Left":68,"Engine_N1_Target_Left":60,"FCU_Roll_Left":0,"FCU_Pitch_Left":0}}
{"schema":"sim-blackbox.v1","seq":16,"timeMs":607,"dt":0.04,"receivedAt":"2026-06-01T08:06:31.192Z","source":"simulator-live","initialConfig":{"altitudeFt":10000,"casKt":250,"throttle":0.6,"pitchDeg":3},"pilot":{"source":"keyboard","keys":[],"rollCmdRaw":0,"pitchCmdRaw":0,"rudderCmdRaw":0,"throttleCmdRaw":0.6},"controls":{"roll":0,"pitch":0,"rudder":0,"throttle":0.6},"state":{"pitchDeg":3,"rollDeg":0,"headingDeg":0,"altitudeM":3047.9999978504807,"altitudeFt":10000.000312947772,"vyMs":-0.00000912892025600594,"casKt":249.99954934016995,"n1Pct":68,"throttle":0.6,"normalG":0.9999972423433012,"aoaDeg":3.0000030905333546},"physics":{"rho":0.9046355375749032,"tasMs":149.6598058367892,"qS":1235987.0827473842,"gammaDeg":-0.0000030905333546859027,"alphaDeg":3.0000030905333546,"cl":0.4762172558752923,"cd":0.032205229365702706,"liftN":588598.3768432671,"dragN":39805.24749292528,"thrustN":39780,"axMs2":-0.0004202623975245314,"verticalAccelMs2":-0.00002640680035559915,"nz":0.9999972423433012,"cmdPitchRateDegS":0,"pitchRateDegS":0,"cmdRollRateDegS":0,"rollDampingDegS":0,"coordTurnRateDegS":0,"yawRateDegS":0},"telemetry":{"PitchAngle":3,"RollAngle":0,"MagneticHeading":0,"BaroAltitude":10000.000312947772,"RadioAltitude":10000.000312947772,"CAS":249.99954934016995,"Vy":-0.00912892025600594,"NormalG":0.9999972423433012,"AoA":3.0000030905333546,"Engine_N1_Left":68,"Engine_N1_Target_Left":60,"FCU_Roll_Left":0,"FCU_Pitch_Left":0}}
{"schema":"sim-blackbox.v1","seq":17,"timeMs":646,"dt":0.04,"receivedAt":"2026-06-01T08:06:31.231Z","source":"simulator-live","initialConfig":{"altitudeFt":10000,"casKt":250,"throttle":0.6,"pitchDeg":3},"pilot":{"source":"keyboard","keys":[],"rollCmdRaw":0,"pitchCmdRaw":0,"rudderCmdRaw":0,"throttleCmdRaw":0.6},"controls":{"roll":0,"pitch":0,"rudder":0,"throttle":0.6},"state":{"pitchDeg":3,"rollDeg":0,"headingDeg":0,"altitudeM":3047.999997440962,"altitudeFt":10000.000311604206,"vyMs":-0.000010237963883521527,"casKt":249.99952127603896,"n1Pct":68,"throttle":0.6,"normalG":0.9999970992452285,"aoaDeg":3.0000034949170167},"physics":{"rho":0.9046355376089577,"tasMs":149.65978903365237,"qS":1235986.805130151,"gammaDeg":-0.0000034949170170047853,"alphaDeg":3.0000034949170167,"cl":0.47621729469333723,"cd":0.03220523102942684,"liftN":588598.2926157415,"dragN":39805.24060853968,"thrustN":39780,"axMs2":-0.00042007842048806987,"verticalAccelMs2":-0.00002772609068788968,"nz":0.9999970992452285,"cmdPitchRateDegS":0,"pitchRateDegS":0,"cmdRollRateDegS":0,"rollDampingDegS":0,"coordTurnRateDegS":0,"yawRateDegS":0},"telemetry":{"PitchAngle":3,"RollAngle":0,"MagneticHeading":0,"BaroAltitude":10000.000311604206,"RadioAltitude":10000.000311604206,"CAS":249.99952127603896,"Vy":-0.010237963883521528,"NormalG":0.9999970992452285,"AoA":3.0000034949170167,"Engine_N1_Left":68,"Engine_N1_Target_Left":60,"FCU_Roll_Left":0,"FCU_Pitch_Left":0}}
{"schema":"sim-blackbox.v1","seq":18,"timeMs":687,"dt":0.04,"receivedAt":"2026-06-01T08:06:31.272Z","source":"simulator-live","initialConfig":{"altitudeFt":10000,"casKt":250,"throttle":0.6,"pitchDeg":3},"pilot":{"source":"keyboard","keys":[],"rollCmdRaw":0,"pitchCmdRaw":0,"rudderCmdRaw":0,"throttleCmdRaw":0.6},"controls":{"roll":0,"pitch":0,"rudder":0,"throttle":0.6},"state":{"pitchDeg":3,"rollDeg":0,"headingDeg":0,"altitudeM":3047.9999969850433,"altitudeFt":10000.00031010841,"vyMs":-0.000011397971854291632,"casKt":249.9994932248848,"n1Pct":68,"throttle":0.6,"normalG":0.9999969603224893,"aoaDeg":3.0000039195038632},"physics":{"rho":0.9046355376471497,"tasMs":149.65977223794178,"qS":1235986.5276401541,"gammaDeg":-0.0000039195038635344325,"alphaDeg":3.0000039195038632,"cl":0.47621733545074857,"cd":0.032205232776271485,"liftN":588598.2108458172,"dragN":39805.233830986675,"thrustN":39780,"axMs2":-0.0004198927648703092,"verticalAccelMs2":-0.000029000199269252612,"nz":0.9999969603224893,"cmdPitchRateDegS":0,"pitchRateDegS":0,"cmdRollRateDegS":0,"rollDampingDegS":0,"coordTurnRateDegS":0,"yawRateDegS":0},"telemetry":{"PitchAngle":3,"RollAngle":0,"MagneticHeading":0,"BaroAltitude":10000.00031010841,"RadioAltitude":10000.00031010841,"CAS":249.9994932248848,"Vy":-0.011397971854291632,"NormalG":0.9999969603224893,"AoA":3.0000039195038632,"Engine_N1_Left":68,"Engine_N1_Target_Left":60,"FCU_Roll_Left":0,"FCU_Pitch_Left":0}}
{"schema":"sim-blackbox.v1","seq":19,"timeMs":728,"dt":0.04,"receivedAt":"2026-06-01T08:06:31.313Z","source":"simulator-live","initialConfig":{"altitudeFt":10000,"casKt":250,"throttle":0.6,"pitchDeg":3},"pilot":{"source":"keyboard","keys":[],"rollCmdRaw":0,"pitchCmdRaw":0,"rudderCmdRaw":0,"throttleCmdRaw":0.6},"controls":{"roll":0,"pitch":0,"rudder":0,"throttle":0.6},"state":{"pitchDeg":3,"rollDeg":0,"headingDeg":0,"altitudeM":3047.9999964807553,"altitudeFt":10000.00030845392,"vyMs":-0.000012607196974918265,"casKt":249.99946518684172,"n1Pct":68,"throttle":0.6,"normalG":0.9999968254367213,"aoaDeg":3.000004363602005},"physics":{"rho":0.9046355376896685,"tasMs":149.65975544972213,"qS":1235986.2502787611,"gammaDeg":-0.0000043636020053640535,"alphaDeg":3.000004363602005,"cl":0.47621737808110987,"cd":0.0322052346033901,"liftN":588598.1314520541,"dragN":39805.22715679194,"thrustN":39780,"axMs2":-0.00041970549122878815,"verticalAccelMs2":-0.00003023062801566581,"nz":0.9999968254367213,"cmdPitchRateDegS":0,"pitchRateDegS":0,"cmdRollRateDegS":0,"rollDampingDegS":0,"coordTurnRateDegS":0,"yawRateDegS":0},"telemetry":{"PitchAngle":3,"RollAngle":0,"MagneticHeading":0,"BaroAltitude":10000.00030845392,"RadioAltitude":10000.00030845392,"CAS":249.99946518684172,"Vy":-0.012607196974918265,"NormalG":0.9999968254367213,"AoA":3.000004363602005,"Engine_N1_Left":68,"Engine_N1_Target_Left":60,"FCU_Roll_Left":0,"FCU_Pitch_Left":0}}
{"schema":"sim-blackbox.v1","seq":20,"timeMs":769,"dt":0.04,"receivedAt":"2026-06-01T08:06:31.354Z","source":"simulator-live","initialConfig":{"altitudeFt":10000,"casKt":250,"throttle":0.6,"pitchDeg":3},"pilot":{"source":"keyboard","keys":[],"rollCmdRaw":0,"pitchCmdRaw":0,"rudderCmdRaw":0,"throttleCmdRaw":0.6},"controls":{"roll":0,"pitch":0,"rudder":0,"throttle":0.6},"state":{"pitchDeg":3,"rollDeg":0,"headingDeg":0,"altitudeM":3047.9999959261972,"altitudeFt":10000.000306634505,"vyMs":-0.000013863950132407948,"casKt":249.99943716203947,"n1Pct":68,"throttle":0.6,"normalG":0.9999966944541595,"aoaDeg":3.000004826542553},"physics":{"rho":0.9046355377366986,"tasMs":149.6597386690558,"qS":1235985.9730472928,"gammaDeg":-0.000004826542553021757,"alphaDeg":3.000004826542553,"cl":0.47621742252021226,"cd":0.03220523650803075,"liftN":588598.0543557183,"dragN":39805.22058259658,"thrustN":39780,"axMs2":-0.00041951665810716104,"verticalAccelMs2":-0.000031418828937242066,"nz":0.9999966944541595,"cmdPitchRateDegS":0,"pitchRateDegS":0,"cmdRollRateDegS":0,"rollDampingDegS":0,"coordTurnRateDegS":0,"yawRateDegS":0},"telemetry":{"PitchAngle":3,"RollAngle":0,"MagneticHeading":0,"BaroAltitude":10000.000306634505,"RadioAltitude":10000.000306634505,"CAS":249.99943716203947,"Vy":-0.013863950132407947,"NormalG":0.9999966944541595,"AoA":3.000004826542553,"Engine_N1_Left":68,"Engine_N1_Target_Left":60,"FCU_Roll_Left":0,"FCU_Pitch_Left":0}}
{"schema":"sim-blackbox.v1","seq":21,"timeMs":809,"dt":0.04,"receivedAt":"2026-06-01T08:06:31.394Z","source":"simulator-live","initialConfig":{"altitudeFt":10000,"casKt":250,"throttle":0.6,"pitchDeg":3},"pilot":{"source":"keyboard","keys":[],"rollCmdRaw":0,"pitchCmdRaw":0,"rudderCmdRaw":0,"throttleCmdRaw":0.6},"controls":{"roll":0,"pitch":0,"rudder":0,"throttle":0.6},"state":{"pitchDeg":3,"rollDeg":0,"headingDeg":0,"altitudeM":3047.9999953195334,"altitudeFt":10000.000304644138,"vyMs":-0.000015166598364488536,"casKt":249.99940915060293,"n1Pct":68,"throttle":0.6,"normalG":0.9999965672454829,"aoaDeg":3.0000053076788524},"physics":{"rho":0.9046355377884167,"tasMs":149.6597218960029,"qS":1235985.6959470212,"gammaDeg":-0.000005307678852248684,"alphaDeg":3.0000053076788524,"cl":0.4762174687059814,"cd":0.032205238487532956,"liftN":588597.9794806913,"dragN":39805.214105153216,"thrustN":39780,"axMs2":-0.0004193263221004409,"verticalAccelMs2":-0.00003256620580201471,"nz":0.9999965672454829,"cmdPitchRateDegS":0,"pitchRateDegS":0,"cmdRollRateDegS":0,"rollDampingDegS":0,"coordTurnRateDegS":0,"yawRateDegS":0},"telemetry":{"PitchAngle":3,"RollAngle":0,"MagneticHeading":0,"BaroAltitude":10000.000304644138,"RadioAltitude":10000.000304644138,"CAS":249.99940915060293,"Vy":-0.015166598364488536,"NormalG":0.9999965672454829,"AoA":3.0000053076788524,"Engine_N1_Left":68,"Engine_N1_Target_Left":60,"FCU_Roll_Left":0,"FCU_Pitch_Left":0}}
{"schema":"sim-blackbox.v1","seq":22,"timeMs":849,"dt":0.04,"receivedAt":"2026-06-01T08:06:31.434Z","source":"simulator-live","initialConfig":{"altitudeFt":10000,"casKt":250,"throttle":0.6,"pitchDeg":3},"pilot":{"source":"keyboard","keys":[],"rollCmdRaw":0,"pitchCmdRaw":0,"rudderCmdRaw":0,"throttleCmdRaw":0.6},"controls":{"roll":0,"pitch":0,"rudder":0,"throttle":0.6},"state":{"pitchDeg":3,"rollDeg":0,"headingDeg":0,"altitudeM":3047.999994658991,"altitudeFt":10000.000302477003,"vyMs":-0.0000165135629943912,"casKt":249.99938115265255,"n1Pct":68,"throttle":0.6,"normalG":0.999996443685666,"aoaDeg":3.000005806385745},"physics":{"rho":0.9046355378449943,"tasMs":149.6597051306214,"qS":1235985.418979173,"gammaDeg":-0.000005806385745251181,"alphaDeg":3.000005806385745,"cl":0.4762175165784065,"cd":0.03220524053932472,"liftN":588597.906753383,"dragN":39805.20772132232,"thrustN":39780,"axMs2":-0.00041913453792061017,"verticalAccelMs2":-0.000033674115747566605,"nz":0.999996443685666,"cmdPitchRateDegS":0,"pitchRateDegS":0,"cmdRollRateDegS":0,"rollDampingDegS":0,"coordTurnRateDegS":0,"yawRateDegS":0},"telemetry":{"PitchAngle":3,"RollAngle":0,"MagneticHeading":0,"BaroAltitude":10000.000302477003,"RadioAltitude":10000.000302477003,"CAS":249.99938115265255,"Vy":-0.0165135629943912,"NormalG":0.999996443685666,"AoA":3.000005806385745,"Engine_N1_Left":68,"Engine_N1_Target_Left":60,"FCU_Roll_Left":0,"FCU_Pitch_Left":0}}
{"schema":"sim-blackbox.v1","seq":23,"timeMs":890,"dt":0.04,"receivedAt":"2026-06-01T08:06:31.475Z","source":"simulator-live","initialConfig":{"altitudeFt":10000,"casKt":250,"throttle":0.6,"pitchDeg":3},"pilot":{"source":"keyboard","keys":[],"rollCmdRaw":0,"pitchCmdRaw":0,"rudderCmdRaw":0,"throttleCmdRaw":0.6},"controls":{"roll":0,"pitch":0,"rudder":0,"throttle":0.6},"state":{"pitchDeg":3,"rollDeg":0,"headingDeg":0,"altitudeM":3047.9999939428585,"altitudeFt":10000.000300127487,"vyMs":-0.000017903317826798152,"casKt":249.99935316830422,"n1Pct":68,"throttle":0.6,"normalG":0.999996323653838,"aoaDeg":3.0000063220588564},"physics":{"rho":0.9046355379065966,"tasMs":149.65968837296705,"qS":1235985.1421449315,"gammaDeg":-0.000006322058856632343,"alphaDeg":3.0000063220588564,"cl":0.4762175660794716,"cd":0.032205242660919516,"liftN":588597.836102649,"dragN":39805.20142806862,"thrustN":39780,"axMs2":-0.00041894135845921846,"verticalAccelMs2":-0.00003474387081017373,"nz":0.999996323653838,"cmdPitchRateDegS":0,"pitchRateDegS":0,"cmdRollRateDegS":0,"rollDampingDegS":0,"coordTurnRateDegS":0,"yawRateDegS":0},"telemetry":{"PitchAngle":3,"RollAngle":0,"MagneticHeading":0,"BaroAltitude":10000.000300127487,"RadioAltitude":10000.000300127487,"CAS":249.99935316830422,"Vy":-0.017903317826798153,"NormalG":0.999996323653838,"AoA":3.0000063220588564,"Engine_N1_Left":68,"Engine_N1_Target_Left":60,"FCU_Roll_Left":0,"FCU_Pitch_Left":0}}
{"schema":"sim-blackbox.v1","seq":24,"timeMs":929,"dt":0.04,"receivedAt":"2026-06-01T08:06:31.514Z","source":"simulator-live","initialConfig":{"altitudeFt":10000,"casKt":250,"throttle":0.6,"pitchDeg":3},"pilot":{"source":"keyboard","keys":[],"rollCmdRaw":0,"pitchCmdRaw":0,"rudderCmdRaw":0,"throttleCmdRaw":0.6},"controls":{"roll":0,"pitch":0,"rudder":0,"throttle":0.6},"state":{"pitchDeg":3,"rollDeg":0,"headingDeg":0,"altitudeM":3047.999993169483,"altitudeFt":10000.000297590166,"vyMs":-0.00001933438740462968,"casKt":249.9993251976701,"n1Pct":68,"throttle":0.6,"normalG":0.9999962070331425,"aoaDeg":3.000006854113902},"physics":{"rho":0.9046355379733836,"tasMs":149.65967162309366,"qS":1235984.8654454364,"gammaDeg":-0.000006854113902739792,"alphaDeg":3.000006854113902,"cl":0.4762176171530895,"cd":0.032205244849913495,"liftN":588597.7674597077,"dragN":39805.19522245767,"thrustN":39780,"axMs2":-0.00041874683484778943,"verticalAccelMs2":-0.00003577673944578816,"nz":0.9999962070331425,"cmdPitchRateDegS":0,"pitchRateDegS":0,"cmdRollRateDegS":0,"rollDampingDegS":0,"coordTurnRateDegS":0,"yawRateDegS":0},"telemetry":{"PitchAngle":3,"RollAngle":0,"MagneticHeading":0,"BaroAltitude":10000.000297590166,"RadioAltitude":10000.000297590166,"CAS":249.9993251976701,"Vy":-0.01933438740462968,"NormalG":0.9999962070331425,"AoA":3.000006854113902,"Engine_N1_Left":68,"Engine_N1_Target_Left":60,"FCU_Roll_Left":0,"FCU_Pitch_Left":0}}
{"schema":"sim-blackbox.v1","seq":25,"timeMs":970,"dt":0.04,"receivedAt":"2026-06-01T08:06:31.555Z","source":"simulator-live","initialConfig":{"altitudeFt":10000,"casKt":250,"throttle":0.6,"pitchDeg":3},"pilot":{"source":"keyboard","keys":[],"rollCmdRaw":0,"pitchCmdRaw":0,"rudderCmdRaw":0,"throttleCmdRaw":0.6},"controls":{"roll":0,"pitch":0,"rudder":0,"throttle":0.6},"state":{"pitchDeg":3,"rollDeg":0,"headingDeg":0,"altitudeM":3047.999992337269,"altitudeFt":10000.000294859805,"vyMs":-0.00002080534532338271,"casKt":249.99929724085766,"n1Pct":68,"throttle":0.6,"normalG":0.9999960937106054,"aoaDeg":3.000007401986024},"physics":{"rho":0.9046355380455083,"tasMs":149.659654881053,"qS":1235984.5888817853,"gammaDeg":-0.000007401986024304714,"alphaDeg":3.000007401986024,"cl":0.47621766974503776,"cd":0.03220524710398272,"liftN":588597.7007580623,"dragN":39805.18910165239,"thrustN":39780,"axMs2":-0.0004185510165152112,"verticalAccelMs2":-0.00003677394796882579,"nz":0.9999960937106054,"cmdPitchRateDegS":0,"pitchRateDegS":0,"cmdRollRateDegS":0,"rollDampingDegS":0,"coordTurnRateDegS":0,"yawRateDegS":0},"telemetry":{"PitchAngle":3,"RollAngle":0,"MagneticHeading":0,"BaroAltitude":10000.000294859805,"RadioAltitude":10000.000294859805,"CAS":249.99929724085766,"Vy":-0.02080534532338271,"NormalG":0.9999960937106054,"AoA":3.000007401986024,"Engine_N1_Left":68,"Engine_N1_Target_Left":60,"FCU_Roll_Left":0,"FCU_Pitch_Left":0}}
{"schema":"sim-blackbox.v1","seq":26,"timeMs":1010,"dt":0.04,"receivedAt":"2026-06-01T08:06:31.595Z","source":"simulator-live","initialConfig":{"altitudeFt":10000,"casKt":250,"throttle":0.6,"pitchDeg":3},"pilot":{"source":"keyboard","keys":[],"rollCmdRaw":0,"pitchCmdRaw":0,"rudderCmdRaw":0,"throttleCmdRaw":0.6},"controls":{"roll":0,"pitch":0,"rudder":0,"throttle":0.6},"state":{"pitchDeg":3,"rollDeg":0,"headingDeg":0,"altitudeM":3047.999991444676,"altitudeFt":10000.000291931352,"vyMs":-0.000022314812600963403,"casKt":249.99926929797113,"n1Pct":68,"throttle":0.6,"normalG":0.9999959835770066,"aoaDeg":3.0000079651291407},"physics":{"rho":0.9046355381231211,"tasMs":149.65963814689496,"qS":1235984.3124550385,"gammaDeg":-0.000007965129141113512,"alphaDeg":3.0000079651291407,"cl":0.47621772380289623,"cd":0.032205249420880516,"liftN":588597.6359334261,"dragN":39805.18306291003,"thrustN":39780,"axMs2":-0.00041835395124705253,"verticalAccelMs2":-0.00003773668193951728,"nz":0.9999959835770066,"cmdPitchRateDegS":0,"pitchRateDegS":0,"cmdRollRateDegS":0,"rollDampingDegS":0,"coordTurnRateDegS":0,"yawRateDegS":0},"telemetry":{"PitchAngle":3,"RollAngle":0,"MagneticHeading":0,"BaroAltitude":10000.000291931352,"RadioAltitude":10000.000291931352,"CAS":249.99926929797113,"Vy":-0.022314812600963404,"NormalG":0.9999959835770066,"AoA":3.0000079651291407,"Engine_N1_Left":68,"Engine_N1_Target_Left":60,"FCU_Roll_Left":0,"FCU_Pitch_Left":0}}
{"schema":"sim-blackbox.v1","seq":27,"timeMs":1050,"dt":0.04,"receivedAt":"2026-06-01T08:06:31.635Z","source":"simulator-live","initialConfig":{"altitudeFt":10000,"casKt":250,"throttle":0.6,"pitchDeg":3},"pilot":{"source":"keyboard","keys":[],"rollCmdRaw":0,"pitchCmdRaw":0,"rudderCmdRaw":0,"throttleCmdRaw":0.6},"controls":{"roll":0,"pitch":0,"rudder":0,"throttle":0.6},"state":{"pitchDeg":3,"rollDeg":0,"headingDeg":0,"altitudeM":3047.999990490218,"altitudeFt":10000.000288799927,"vyMs":-0.00002386145610261836,"casKt":249.99924136911025,"n1Pct":68,"throttle":0.6,"normalG":0.9999958765267534,"aoaDeg":3.0000085430153276},"physics":{"rho":0.9046355382063642,"tasMs":149.65962142066755,"qS":1235984.0361662146,"gammaDeg":-0.000008543015327924386,"alphaDeg":3.0000085430153276,"cl":0.4762177792759879,"cd":0.032205251798434906,"liftN":588597.572923647,"dragN":39805.17710357882,"thrustN":39780,"axMs2":-0.0004181556852367558,"verticalAccelMs2":-0.00003866608754137395,"nz":0.9999958765267534,"cmdPitchRateDegS":0,"pitchRateDegS":0,"cmdRollRateDegS":0,"rollDampingDegS":0,"coordTurnRateDegS":0,"yawRateDegS":0},"telemetry":{"PitchAngle":3,"RollAngle":0,"MagneticHeading":0,"BaroAltitude":10000.000288799927,"RadioAltitude":10000.000288799927,"CAS":249.99924136911025,"Vy":-0.02386145610261836,"NormalG":0.9999958765267534,"AoA":3.0000085430153276,"Engine_N1_Left":68,"Engine_N1_Target_Left":60,"FCU_Roll_Left":0,"FCU_Pitch_Left":0}}
{"schema":"sim-blackbox.v1","seq":28,"timeMs":1090,"dt":0.04,"receivedAt":"2026-06-01T08:06:31.675Z","source":"simulator-live","initialConfig":{"altitudeFt":10000,"casKt":250,"throttle":0.6,"pitchDeg":3},"pilot":{"source":"keyboard","keys":[],"rollCmdRaw":0,"pitchCmdRaw":0,"rudderCmdRaw":0,"throttleCmdRaw":0.6},"controls":{"roll":0,"pitch":0,"rudder":0,"throttle":0.6},"state":{"pitchDeg":3,"rollDeg":0,"headingDeg":0,"altitudeM":3047.9999894724583,"altitudeFt":10000.00028546082,"vyMs":-0.000025443987017520805,"casKt":249.99921345437173,"n1Pct":68,"throttle":0.6,"normalG":0.9999957724577614,"aoaDeg":3.0000091351342113},"physics":{"rho":0.9046355382953775,"tasMs":149.65960470241703,"qS":1235983.760016297,"gammaDeg":-0.000009135134211477445,"alphaDeg":3.0000091351342113,"cl":0.47621783611532037,"cd":0.032205254234546114,"liftN":588597.5116686383,"dragN":39805.17122109508,"thrustN":39780,"axMs2":-0.0004179562631408573,"verticalAccelMs2":-0.0000395632728725611,"nz":0.9999957724577614,"cmdPitchRateDegS":0,"pitchRateDegS":0,"cmdRollRateDegS":0,"rollDampingDegS":0,"coordTurnRateDegS":0,"yawRateDegS":0},"telemetry":{"PitchAngle":3,"RollAngle":0,"MagneticHeading":0,"BaroAltitude":10000.00028546082,"RadioAltitude":10000.00028546082,"CAS":249.99921345437173,"Vy":-0.025443987017520805,"NormalG":0.9999957724577614,"AoA":3.0000091351342113,"Engine_N1_Left":68,"Engine_N1_Target_Left":60,"FCU_Roll_Left":0,"FCU_Pitch_Left":0}}
{"schema":"sim-blackbox.v1","seq":29,"timeMs":1131,"dt":0.04,"receivedAt":"2026-06-01T08:06:31.716Z","source":"simulator-live","initialConfig":{"altitudeFt":10000,"casKt":250,"throttle":0.6,"pitchDeg":3},"pilot":{"source":"keyboard","keys":[],"rollCmdRaw":0,"pitchCmdRaw":0,"rudderCmdRaw":0,"throttleCmdRaw":0.6},"controls":{"roll":0,"pitch":0,"rudder":0,"throttle":0.6},"state":{"pitchDeg":3,"rollDeg":0,"headingDeg":0,"altitudeM":3047.999988390012,"altitudeFt":10000.000281909486,"vyMs":-0.000027061159386062187,"casKt":249.9991855538483,"n1Pct":68,"throttle":0.6,"normalG":0.9999956712713379,"aoaDeg":3.0000097409923874},"physics":{"rho":0.9046355383902939,"tasMs":149.6595879921879,"qS":1235983.4840062326,"gammaDeg":-0.000009740992387280057,"alphaDeg":3.0000097409923874,"cl":0.4762178942735302,"cd":0.03220525672718418,"liftN":588597.4521103095,"dragN":39805.16541298026,"thrustN":39780,"axMs2":-0.00041775572812936704,"verticalAccelMs2":-0.000040429309213534574,"nz":0.9999956712713379,"cmdPitchRateDegS":0,"pitchRateDegS":0,"cmdRollRateDegS":0,"rollDampingDegS":0,"coordTurnRateDegS":0,"yawRateDegS":0},"telemetry":{"PitchAngle":3,"RollAngle":0,"MagneticHeading":0,"BaroAltitude":10000.000281909486,"RadioAltitude":10000.000281909486,"CAS":249.9991855538483,"Vy":-0.027061159386062187,"NormalG":0.9999956712713379,"AoA":3.0000097409923874,"Engine_N1_Left":68,"Engine_N1_Target_Left":60,"FCU_Roll_Left":0,"FCU_Pitch_Left":0}}
{"schema":"sim-blackbox.v1","seq":30,"timeMs":1172,"dt":0.04,"receivedAt":"2026-06-01T08:06:31.757Z","source":"simulator-live","initialConfig":{"altitudeFt":10000,"casKt":250,"throttle":0.6,"pitchDeg":3},"pilot":{"source":"keyboard","keys":[],"rollCmdRaw":0,"pitchCmdRaw":0,"rudderCmdRaw":0,"throttleCmdRaw":0.6},"controls":{"roll":0,"pitch":0,"rudder":0,"throttle":0.6},"state":{"pitchDeg":3,"rollDeg":0,"headingDeg":0,"altitudeM":3047.999987241541,"altitudeFt":10000.000278141537,"vyMs":-0.00002871176867655433,"casKt":249.99915766762925,"n1Pct":68,"throttle":0.6,"normalG":0.999995572872068,"aoaDeg":3.000010360112856},"physics":{"rho":0.9046355384912428,"tasMs":149.65957129002302,"qS":1235983.2081369322,"gammaDeg":-0.000010360112855803896,"alphaDeg":3.000010360112856,"cl":0.47621795370482867,"cd":0.032205259274386645,"liftN":588597.3941924992,"dragN":39805.1596768381,"thrustN":39780,"axMs2":-0.0004175541219347652,"verticalAccelMs2":-0.00004126523226230358,"nz":0.999995572872068,"cmdPitchRateDegS":0,"pitchRateDegS":0,"cmdRollRateDegS":0,"rollDampingDegS":0,"coordTurnRateDegS":0,"yawRateDegS":0},"telemetry":{"PitchAngle":3,"RollAngle":0,"MagneticHeading":0,"BaroAltitude":10000.000278141537,"RadioAltitude":10000.000278141537,"CAS":249.99915766762925,"Vy":-0.02871176867655433,"NormalG":0.999995572872068,"AoA":3.000010360112856,"Engine_N1_Left":68,"Engine_N1_Target_Left":60,"FCU_Roll_Left":0,"FCU_Pitch_Left":0}}
{"schema":"sim-blackbox.v1","seq":31,"timeMs":1212,"dt":0.04,"receivedAt":"2026-06-01T08:06:31.797Z","source":"simulator-live","initialConfig":{"altitudeFt":10000,"casKt":250,"throttle":0.6,"pitchDeg":3},"pilot":{"source":"keyboard","keys":[],"rollCmdRaw":0,"pitchCmdRaw":0,"rudderCmdRaw":0,"throttleCmdRaw":0.6},"controls":{"roll":0,"pitch":0,"rudder":0,"throttle":0.6},"state":{"pitchDeg":3,"rollDeg":0,"headingDeg":0,"altitudeM":3047.999986025755,"altitudeFt":10000.000274152737,"vyMs":-0.00003039465040826509,"casKt":249.99912979580094,"n1Pct":68,"throttle":0.6,"normalG":0.9999954771677078,"aoaDeg":3.0000109920344773},"physics":{"rho":0.9046355385983494,"tasMs":149.65955459596364,"qS":1235982.932409275,"gammaDeg":-0.000010992034477597942,"alphaDeg":3.0000109920344773,"cl":0.4762180143649497,"cd":0.03220526187425629,"liftN":588597.3378609128,"dragN":39805.154010351915,"thrustN":39780,"axMs2":-0.00041735148490066963,"verticalAccelMs2":-0.00004207204329276898,"nz":0.9999954771677078,"cmdPitchRateDegS":0,"pitchRateDegS":0,"cmdRollRateDegS":0,"rollDampingDegS":0,"coordTurnRateDegS":0,"yawRateDegS":0},"telemetry":{"PitchAngle":3,"RollAngle":0,"MagneticHeading":0,"BaroAltitude":10000.000274152737,"RadioAltitude":10000.000274152737,"CAS":249.99912979580094,"Vy":-0.030394650408265087,"NormalG":0.9999954771677078,"AoA":3.0000109920344773,"Engine_N1_Left":68,"Engine_N1_Target_Left":60,"FCU_Roll_Left":0,"FCU_Pitch_Left":0}}
{"schema":"sim-blackbox.v1","seq":32,"timeMs":1252,"dt":0.04,"receivedAt":"2026-06-01T08:06:31.837Z","source":"simulator-live","initialConfig":{"altitudeFt":10000,"casKt":250,"throttle":0.6,"pitchDeg":3},"pilot":{"source":"keyboard","keys":[],"rollCmdRaw":0,"pitchCmdRaw":0,"rudderCmdRaw":0,"throttleCmdRaw":0.6},"controls":{"roll":0,"pitch":0,"rudder":0,"throttle":0.6},"state":{"pitchDeg":3,"rollDeg":0,"headingDeg":0,"altitudeM":3047.999984741408,"altitudeFt":10000.000269939,"vyMs":-0.000032108678821074945,"casKt":249.99910193844616,"n1Pct":68,"throttle":0.6,"normalG":0.9999953840690772,"aoaDeg":3.000011636311446},"physics":{"rho":0.904635538711734,"tasMs":149.6595379100494,"qS":1235982.6568241066,"gammaDeg":-0.000011636311446139493,"alphaDeg":3.000011636311446,"cl":0.4762180762110989,"cd":0.032205264524959,"liftN":588597.2830630589,"dragN":39805.14841128197,"thrustN":39780,"axMs2":-0.00041714785602758837,"verticalAccelMs2":-0.00004285071032024634,"nz":0.9999953840690772,"cmdPitchRateDegS":0,"pitchRateDegS":0,"cmdRollRateDegS":0,"rollDampingDegS":0,"coordTurnRateDegS":0,"yawRateDegS":0},"telemetry":{"PitchAngle":3,"RollAngle":0,"MagneticHeading":0,"BaroAltitude":10000.000269939,"RadioAltitude":10000.000269939,"CAS":249.99910193844616,"Vy":-0.032108678821074946,"NormalG":0.9999953840690772,"AoA":3.000011636311446,"Engine_N1_Left":68,"Engine_N1_Target_Left":60,"FCU_Roll_Left":0,"FCU_Pitch_Left":0}}
{"schema":"sim-blackbox.v1","seq":33,"timeMs":1293,"dt":0.04,"receivedAt":"2026-06-01T08:06:31.878Z","source":"simulator-live","initialConfig":{"altitudeFt":10000,"casKt":250,"throttle":0.6,"pitchDeg":3},"pilot":{"source":"keyboard","keys":[],"rollCmdRaw":0,"pitchCmdRaw":0,"rudderCmdRaw":0,"throttleCmdRaw":0.6},"controls":{"roll":0,"pitch":0,"rudder":0,"throttle":0.6},"state":{"pitchDeg":3,"rollDeg":0,"headingDeg":0,"altitudeM":3047.999983387297,"altitudeFt":10000.00026549638,"vyMs":-0.000033852765589122094,"casKt":249.99907409564477,"n1Pct":68,"throttle":0.6,"normalG":0.9999952934899585,"aoaDeg":3.0000122925127783},"physics":{"rho":0.9046355388315126,"tasMs":149.6595212323185,"qS":1235982.3813822402,"gammaDeg":-0.00001229251277853321,"alphaDeg":3.0000122925127783,"cl":0.47621813920190487,"cd":0.03220526722472162,"liftN":588597.2297481896,"dragN":39805.14287746284,"thrustN":39780,"axMs2":-0.0004169432730167074,"verticalAccelMs2":-0.00004360216920117873,"nz":0.9999952934899585,"cmdPitchRateDegS":0,"pitchRateDegS":0,"cmdRollRateDegS":0,"rollDampingDegS":0,"coordTurnRateDegS":0,"yawRateDegS":0},"telemetry":{"PitchAngle":3,"RollAngle":0,"MagneticHeading":0,"BaroAltitude":10000.00026549638,"RadioAltitude":10000.00026549638,"CAS":249.99907409564477,"Vy":-0.03385276558912209,"NormalG":0.9999952934899585,"AoA":3.0000122925127783,"Engine_N1_Left":68,"Engine_N1_Target_Left":60,"FCU_Roll_Left":0,"FCU_Pitch_Left":0}}
{"schema":"sim-blackbox.v1","seq":34,"timeMs":1334,"dt":0.04,"receivedAt":"2026-06-01T08:06:31.919Z","source":"simulator-live","initialConfig":{"altitudeFt":10000,"casKt":250,"throttle":0.6,"pitchDeg":3},"pilot":{"source":"keyboard","keys":[],"rollCmdRaw":0,"pitchCmdRaw":0,"rudderCmdRaw":0,"throttleCmdRaw":0.6},"controls":{"roll":0,"pitch":0,"rudder":0,"throttle":0.6},"state":{"pitchDeg":3,"rollDeg":0,"headingDeg":0,"altitudeM":3047.9999819622626,"altitudeFt":10000.000260821069,"vyMs":-0.00003562585857733689,"casKt":249.99904626747343,"n1Pct":68,"throttle":0.6,"normalG":0.9999952053469977,"aoaDeg":3.0000129602218224},"physics":{"rho":0.904635538957797,"tasMs":149.6595045628076,"qS":1235982.1060844595,"gammaDeg":-0.000012960221823050386,"alphaDeg":3.0000129602218224,"cl":0.4762182032973718,"cd":0.03220526997182996,"liftN":588597.1778672428,"dragN":39805.13740680099,"thrustN":39780,"axMs2":-0.00041673777231358356,"verticalAccelMs2":-0.00004432732470536982,"nz":0.9999952053469977,"cmdPitchRateDegS":0,"pitchRateDegS":0,"cmdRollRateDegS":0,"rollDampingDegS":0,"coordTurnRateDegS":0,"yawRateDegS":0},"telemetry":{"PitchAngle":3,"RollAngle":0,"MagneticHeading":0,"BaroAltitude":10000.000260821069,"RadioAltitude":10000.000260821069,"CAS":249.99904626747343,"Vy":-0.03562585857733689,"NormalG":0.9999952053469977,"AoA":3.0000129602218224,"Engine_N1_Left":68,"Engine_N1_Target_Left":60,"FCU_Roll_Left":0,"FCU_Pitch_Left":0}}
{"schema":"sim-blackbox.v1","seq":35,"timeMs":1374,"dt":0.04,"receivedAt":"2026-06-01T08:06:31.959Z","source":"simulator-live","initialConfig":{"altitudeFt":10000,"casKt":250,"throttle":0.6,"pitchDeg":3},"pilot":{"source":"keyboard","keys":[],"rollCmdRaw":0,"pitchCmdRaw":0,"rudderCmdRaw":0,"throttleCmdRaw":0.6},"controls":{"roll":0,"pitch":0,"rudder":0,"throttle":0.6},"state":{"pitchDeg":3,"rollDeg":0,"headingDeg":0,"altitudeM":3047.9999804651848,"altitudeFt":10000.000255909397,"vyMs":-0.000037426940638419366,"casKt":249.99901845400626,"n1Pct":68,"throttle":0.6,"normalG":0.9999951195596113,"aoaDeg":3.0000136390357834},"physics":{"rho":0.904635539090696,"tasMs":149.65948790155204,"qS":1235981.8309315185,"gammaDeg":-0.000013639035783087693,"alphaDeg":3.0000136390357834,"cl":0.4762182684588342,"cd":0.03220527276462686,"liftN":588597.1273727872,"dragN":39805.131997272474,"thrustN":39780,"axMs2":-0.0004165313891512101,"verticalAccelMs2":-0.000045027051527061915,"nz":0.9999951195596113,"cmdPitchRateDegS":0,"pitchRateDegS":0,"cmdRollRateDegS":0,"rollDampingDegS":0,"coordTurnRateDegS":0,"yawRateDegS":0},"telemetry":{"PitchAngle":3,"RollAngle":0,"MagneticHeading":0,"BaroAltitude":10000.000255909397,"RadioAltitude":10000.000255909397,"CAS":249.99901845400626,"Vy":-0.037426940638419365,"NormalG":0.9999951195596113,"AoA":3.0000136390357834,"Engine_N1_Left":68,"Engine_N1_Target_Left":60,"FCU_Roll_Left":0,"FCU_Pitch_Left":0}}
{"schema":"sim-blackbox.v1","seq":36,"timeMs":1415,"dt":0.04,"receivedAt":"2026-06-01T08:06:32.000Z","source":"simulator-live","initialConfig":{"altitudeFt":10000,"casKt":250,"throttle":0.6,"pitchDeg":3},"pilot":{"source":"keyboard","keys":[],"rollCmdRaw":0,"pitchCmdRaw":0,"rudderCmdRaw":0,"throttleCmdRaw":0.6},"controls":{"roll":0,"pitch":0,"rudder":0,"throttle":0.6},"state":{"pitchDeg":3,"rollDeg":0,"headingDeg":0,"altitudeM":3047.9999788949835,"altitudeFt":10000.000250757817,"vyMs":-0.00003925502845056616,"casKt":249.99899065531423,"n1Pct":68,"throttle":0.6,"normalG":0.9999950360498925,"aoaDeg":3.000014328565256},"physics":{"rho":0.9046355392303138,"tasMs":149.65947124858573,"qS":1235981.5559241436,"gammaDeg":-0.000014328565256608858,"alphaDeg":3.000014328565256,"cl":0.476218334648912,"cd":0.032205275601510236,"liftN":588597.0782189667,"dragN":39805.126646920486,"thrustN":39780,"axMs2":-0.0004163241575883688,"verticalAccelMs2":-0.00004570219530366976,"nz":0.9999950360498925,"cmdPitchRateDegS":0,"pitchRateDegS":0,"cmdRollRateDegS":0,"rollDampingDegS":0,"coordTurnRateDegS":0,"yawRateDegS":0},"telemetry":{"PitchAngle":3,"RollAngle":0,"MagneticHeading":0,"BaroAltitude":10000.000250757817,"RadioAltitude":10000.000250757817,"CAS":249.99899065531423,"Vy":-0.03925502845056616,"NormalG":0.9999950360498925,"AoA":3.000014328565256,"Engine_N1_Left":68,"Engine_N1_Target_Left":60,"FCU_Roll_Left":0,"FCU_Pitch_Left":0}}
{"schema":"sim-blackbox.v1","seq":37,"timeMs":1455,"dt":0.04,"receivedAt":"2026-06-01T08:06:32.040Z","source":"simulator-live","initialConfig":{"altitudeFt":10000,"casKt":250,"throttle":0.6,"pitchDeg":3},"pilot":{"source":"keyboard","keys":[],"rollCmdRaw":0,"pitchCmdRaw":0,"rudderCmdRaw":0,"throttleCmdRaw":0.6},"controls":{"roll":0,"pitch":0,"rudder":0,"throttle":0.6},"state":{"pitchDeg":3,"rollDeg":0,"headingDeg":0,"altitudeM":3047.9999772506167,"altitudeFt":10000.000245362913,"vyMs":-0.00004110917139416086,"casKt":249.99896287146575,"n1Pct":68,"throttle":0.6,"normalG":0.9999949547425213,"aoaDeg":3.000015028433791},"physics":{"rho":0.904635539376751,"tasMs":149.6594546039413,"qS":1235981.2810630319,"gammaDeg":-0.00001502843379118657,"alphaDeg":3.000015028433791,"cl":0.47621840183146846,"cd":0.032205278480931306,"liftN":588597.0303614481,"dragN":39805.12135385317,"thrustN":39780,"axMs2":-0.00041611611054907083,"verticalAccelMs2":-0.00004635357358986768,"nz":0.9999949547425213,"cmdPitchRateDegS":0,"pitchRateDegS":0,"cmdRollRateDegS":0,"rollDampingDegS":0,"coordTurnRateDegS":0,"yawRateDegS":0},"telemetry":{"PitchAngle":3,"RollAngle":0,"MagneticHeading":0,"BaroAltitude":10000.000245362913,"RadioAltitude":10000.000245362913,"CAS":249.99896287146575,"Vy":-0.041109171394160864,"NormalG":0.9999949547425213,"AoA":3.000015028433791,"Engine_N1_Left":68,"Engine_N1_Target_Left":60,"FCU_Roll_Left":0,"FCU_Pitch_Left":0}}
{"schema":"sim-blackbox.v1","seq":38,"timeMs":1495,"dt":0.04,"receivedAt":"2026-06-01T08:06:32.080Z","source":"simulator-live","initialConfig":{"altitudeFt":10000,"casKt":250,"throttle":0.6,"pitchDeg":3},"pilot":{"source":"keyboard","keys":[],"rollCmdRaw":0,"pitchCmdRaw":0,"rudderCmdRaw":0,"throttleCmdRaw":0.6},"controls":{"roll":0,"pitch":0,"rudder":0,"throttle":0.6},"state":{"pitchDeg":3,"rollDeg":0,"headingDeg":0,"altitudeM":3047.9999755310787,"altitudeFt":10000.000239721385,"vyMs":-0.00004298845046464577,"casKt":249.99893510252673,"n1Pct":68,"throttle":0.6,"normalG":0.9999948755646816,"aoaDeg":3.0000157382774537},"physics":{"rho":0.9046355395301053,"tasMs":149.6594379676501,"qS":1235981.0063488558,"gammaDeg":-0.000015738277453960893,"alphaDeg":3.0000157382774537,"cl":0.47621846997156847,"cd":0.032205281401392775,"liftN":588596.9837573715,"dragN":39805.11611624153,"thrustN":39780,"axMs2":-0.00041590727986162625,"verticalAccelMs2":-0.00004698197676212264,"nz":0.9999948755646816,"cmdPitchRateDegS":0,"pitchRateDegS":0,"cmdRollRateDegS":0,"rollDampingDegS":0,"coordTurnRateDegS":0,"yawRateDegS":0},"telemetry":{"PitchAngle":3,"RollAngle":0,"MagneticHeading":0,"BaroAltitude":10000.000239721385,"RadioAltitude":10000.000239721385,"CAS":249.99893510252673,"Vy":-0.04298845046464577,"NormalG":0.9999948755646816,"AoA":3.0000157382774537,"Engine_N1_Left":68,"Engine_N1_Target_Left":60,"FCU_Roll_Left":0,"FCU_Pitch_Left":0}}
{"schema":"sim-blackbox.v1","seq":39,"timeMs":1536,"dt":0.04,"receivedAt":"2026-06-01T08:06:32.121Z","source":"simulator-live","initialConfig":{"altitudeFt":10000,"casKt":250,"throttle":0.6,"pitchDeg":3},"pilot":{"source":"keyboard","keys":[],"rollCmdRaw":0,"pitchCmdRaw":0,"rudderCmdRaw":0,"throttleCmdRaw":0.6},"controls":{"roll":0,"pitch":0,"rudder":0,"throttle":0.6},"state":{"pitchDeg":3,"rollDeg":0,"headingDeg":0,"altitudeM":3047.9999737353996,"altitudeFt":10000.00023383005,"vyMs":-0.000044891977222896734,"casKt":249.99890734856032,"n1Pct":68,"throttle":0.6,"normalG":0.9999947984459742,"aoaDeg":3.0000164577444153},"physics":{"rho":0.9046355396904695,"tasMs":149.65942133974224,"qS":1235980.73178226,"gammaDeg":-0.000016457744415449058,"alphaDeg":3.0000164577444153,"cl":0.4762185390354388,"cd":0.03220528436144715,"liftN":588596.9383653004,"dragN":39805.11093231722,"thrustN":39780,"axMs2":-0.00041569769629255283,"verticalAccelMs2":-0.000047588168956274026,"nz":0.9999947984459742,"cmdPitchRateDegS":0,"pitchRateDegS":0,"cmdRollRateDegS":0,"rollDampingDegS":0,"coordTurnRateDegS":0,"yawRateDegS":0},"telemetry":{"PitchAngle":3,"RollAngle":0,"MagneticHeading":0,"BaroAltitude":10000.00023383005,"RadioAltitude":10000.00023383005,"CAS":249.99890734856032,"Vy":-0.044891977222896735,"NormalG":0.9999947984459742,"AoA":3.0000164577444153,"Engine_N1_Left":68,"Engine_N1_Target_Left":60,"FCU_Roll_Left":0,"FCU_Pitch_Left":0}}
{"schema":"sim-blackbox.v1","seq":40,"timeMs":1576,"dt":0.04,"receivedAt":"2026-06-01T08:06:32.161Z","source":"simulator-live","initialConfig":{"altitudeFt":10000,"casKt":250,"throttle":0.6,"pitchDeg":3},"pilot":{"source":"keyboard","keys":[],"rollCmdRaw":0,"pitchCmdRaw":0,"rudderCmdRaw":0,"throttleCmdRaw":0.6},"controls":{"roll":0,"pitch":0,"rudder":0,"throttle":0.6},"state":{"pitchDeg":3,"rollDeg":0,"headingDeg":0,"altitudeM":3047.999971862644,"altitudeFt":10000.000227685838,"vyMs":-0.000046818892778799014,"casKt":249.99887960962738,"n1Pct":68,"throttle":0.6,"normalG":0.9999947233183409,"aoaDeg":3.0000171864945475},"physics":{"rho":0.9046355398579349,"tasMs":149.65940472024664,"qS":1235980.4573638665,"gammaDeg":-0.00001718649454771277,"alphaDeg":3.0000171864945475,"cl":0.47621860899042956,"cd":0.03220528735969508,"liftN":588596.8941451755,"dragN":39805.10580037067,"thrustN":39780,"axMs2":-0.0004154873895846964,"verticalAccelMs2":-0.000048172888897557,"nz":0.9999947233183409,"cmdPitchRateDegS":0,"pitchRateDegS":0,"cmdRollRateDegS":0,"rollDampingDegS":0,"coordTurnRateDegS":0,"yawRateDegS":0},"telemetry":{"PitchAngle":3,"RollAngle":0,"MagneticHeading":0,"BaroAltitude":10000.000227685838,"RadioAltitude":10000.000227685838,"CAS":249.99887960962738,"Vy":-0.04681889277879901,"NormalG":0.9999947233183409,"AoA":3.0000171864945475,"Engine_N1_Left":68,"Engine_N1_Target_Left":60,"FCU_Roll_Left":0,"FCU_Pitch_Left":0}}
{"schema":"sim-blackbox.v1","seq":41,"timeMs":1615,"dt":0.04,"receivedAt":"2026-06-01T08:06:32.200Z","source":"simulator-live","initialConfig":{"altitudeFt":10000,"casKt":250,"throttle":0.6,"pitchDeg":3},"pilot":{"source":"keyboard","keys":[],"rollCmdRaw":0,"pitchCmdRaw":0,"rudderCmdRaw":0,"throttleCmdRaw":0.6},"controls":{"roll":0,"pitch":0,"rudder":0,"throttle":0.6},"state":{"pitchDeg":3,"rollDeg":0,"headingDeg":0,"altitudeM":3047.9999699119094,"altitudeFt":10000.000221285789,"vyMs":-0.00004876836681013962,"casKt":249.9988518857864,"n1Pct":68,"throttle":0.6,"normalG":0.9999946501159831,"aoaDeg":3.000017924199035},"physics":{"rho":0.9046355400325885,"tasMs":149.6593881091911,"qS":1235980.183094272,"gammaDeg":-0.00001792419903523589,"alphaDeg":3.000017924199035,"cl":0.4762186798049768,"cd":0.03220529039478377,"liftN":588596.8510582676,"dragN":39805.10071874905,"thrustN":39780,"axMs2":-0.00041527638848953667,"verticalAccelMs2":-0.00004873685078351512,"nz":0.9999946501159831,"cmdPitchRateDegS":0,"pitchRateDegS":0,"cmdRollRateDegS":0,"rollDampingDegS":0,"coordTurnRateDegS":0,"yawRateDegS":0},"telemetry":{"PitchAngle":3,"RollAngle":0,"MagneticHeading":0,"BaroAltitude":10000.000221285789,"RadioAltitude":10000.000221285789,"CAS":249.9988518857864,"Vy":-0.04876836681013962,"NormalG":0.9999946501159831,"AoA":3.000017924199035,"Engine_N1_Left":68,"Engine_N1_Target_Left":60,"FCU_Roll_Left":0,"FCU_Pitch_Left":0}}
{"schema":"sim-blackbox.v1","seq":42,"timeMs":1657,"dt":0.04,"receivedAt":"2026-06-01T08:06:32.242Z","source":"simulator-live","initialConfig":{"altitudeFt":10000,"casKt":250,"throttle":0.6,"pitchDeg":3},"pilot":{"source":"keyboard","keys":[],"rollCmdRaw":0,"pitchCmdRaw":0,"rudderCmdRaw":0,"throttleCmdRaw":0.6},"controls":{"roll":0,"pitch":0,"rudder":0,"throttle":0.6},"state":{"pitchDeg":3,"rollDeg":0,"headingDeg":0,"altitudeM":3047.9999678823256,"altitudeFt":10000.000214627049,"vyMs":-0.00005073959661343574,"casKt":249.9988241770935,"n1Pct":68,"throttle":0.6,"normalG":0.9999945787752877,"aoaDeg":3.000018670539999},"physics":{"rho":0.9046355402145142,"tasMs":149.65937150660227,"qS":1235979.9089740496,"gammaDeg":-0.0000186705399993225,"alphaDeg":3.000018670539999,"cl":0.4762187514485662,"cd":0.032205293465405405,"liftN":588596.8090671344,"dragN":39805.09568585433,"thrustN":39780,"axMs2":-0.00041506472079960385,"verticalAccelMs2":-0.0000492807450824031,"nz":0.9999945787752877,"cmdPitchRateDegS":0,"pitchRateDegS":0,"cmdRollRateDegS":0,"rollDampingDegS":0,"coordTurnRateDegS":0,"yawRateDegS":0},"telemetry":{"PitchAngle":3,"RollAngle":0,"MagneticHeading":0,"BaroAltitude":10000.000214627049,"RadioAltitude":10000.000214627049,"CAS":249.9988241770935,"Vy":-0.050739596613435745,"NormalG":0.9999945787752877,"AoA":3.000018670539999,"Engine_N1_Left":68,"Engine_N1_Target_Left":60,"FCU_Roll_Left":0,"FCU_Pitch_Left":0}}
